[
  {
    "name": "Manipal Hospital",
    "lat": 13.0048,
    "lon": 77.5564
  },
  {
    "name": "Fortis Hospital",
    "lat": 12.9291,
    "lon": 77.6869
  },
  {
    "name": "Bowring & Lady Curzon Hospital",
    "lat": 12.9716,
    "lon": 77.6046
  },
  {
    "name": "Victoria Hospital",
    "lat": 12.9659,
    "lon": 77.5752
  },
  {
    "name": "St. John's Medical College Hospital",
    "lat": 12.9249,
    "lon": 77.6187
  },
  {
    "name": "MS Ramaiah Memorial Hospital",
    "lat": 13.0195,
    "lon": 77.5547
  },
  {
    "name": "Sakra World Hospital",
    "lat": 12.9358,
    "lon": 77.6762
  },
  {
    "name": "Apollo Hospital",
    "lat": 12.8456,
    "lon": 77.6603
  }
]